// Completed by Alannah Perera 261022433 
{
    "features": [
      {
        "type": "Feature",
        "properties": {
          "title": "McLennan Library",
          "description": "25 Water Refill Stations - Humanities and Social Sciences Library"
        },
        "geometry": {
          "coordinates": [-73.575656712296, 45.50339933950996],
          "type": "Point"
        }
      },
      {
        "type": "Feature",
        "properties": {
          "title": "Redpath Library",
          "description": "12 Water Refill Stations - Humanities and Social Sciences Library"
        },
        "geometry": {
          "coordinates": [-73.5773932288355,45.50470109917151],
          "type": "Point"
        }
      },
      {
        "type": "Feature",
        "properties": {
          "title": "Brown Student Student Services",
          "description": "23 Water Refill Stations - Student Wellbeing & Services Building "
        },
        "geometry": {
          "coordinates": [-73.57898131033939,45.50354032970798],
          "type": "Point"
        }
      },
      {
        "type": "Feature",
        "properties": {
          "title": "Chancellor Day Hall",
          "description": "33 Water Refill Stations - Faculty of Law"
        },
        "geometry": {
          "coordinates": [-73.58077344915786, 45.503115174598044],
          "type": "Point"
        }
      },
      {
        "type": "Feature",
        "properties": {
          "title": "Stewart Biology Building",
          "description": "8 Water Refill Stations - Faculty of Science"
        },
        "geometry": {
          "coordinates": [ -73.58066037309025, 45.50274984011393],
          "type": "Point"
        }
      },
      {
        "type": "Feature",
        "properties": {
          "title": "McIntyre Medical Sciences Building",
          "description": "20 Water Refill Stations - Faculty of Medical Science"
        },
        "geometry": {
          "coordinates": [-73.5815005017528, 45.50307447012307],
          "type": "Point"
        }
      },
      {
        "type": "Feature",
        "properties": {
          "title": "Education Building",
          "description": "11 Water Refill Stations - Faculty of Education"
        },
        "geometry": {
          "coordinates": [-73.58029907982466, 45.50487238426762],
          "type": "Point"
        }
      },
      {
        "type": "Feature",
        "properties": {
          "title": "Leacock Building",
          "description": "30 Water Refill Stations - Brutalist Building for the Facutly of Arts"
        },
        "geometry": {
          "coordinates": [-73.57685297753984, 45.50468139737034],
          "type": "Point"
        }
      },
      {
        "type": "Feature",
        "properties": {
          "title": "McCall McBain Arts Building",
          "description": "10 Water Refill Stations - The oldest building on campus for the Faculty of Arts"
        },
        "geometry": {
          "coordinates": [-73.57652115701227, 45.50563422600827],
          "type": "Point"
        }
      },
      {
        "type": "Feature",
        "properties": {
          "title": "Ferrier Building",
          "description": "3 Water Refill Stations - University personnel and power plant"
        },
        "geometry": {
          "coordinates": [ -73.57779772944792, 45.50580907137422],
          "type": "Point"
        }
      },
      {
        "type": "Feature",
        "properties": {
          "title": "Wong Building",
          "description": "25 Water Refill Stations - Chemicals and Materials Engineering"
        },
        "geometry": {
          "coordinates": [-73.57728274543928, 45.50580907136545],
          "type": "Point"
        }
      },
      {
        "type": "Feature",
        "properties": {
          "title": "Genome Building",
          "description": "15 Water Refill Stations - Building for all your genomic needs"
        },
        "geometry": {
          "coordinates": [ -73.57862055327539, 45.50722568819668],
          "type": "Point"
        }
      },
      {
        "type": "Feature",
        "properties": {
          "title": "Burnside Building",
          "description": "13 Water Refill Stations - Humanities and Social Sciences Library"
        },
        "geometry": {
          "coordinates": [-73.57497337636987, 45.5047535380659],
          "type": "Point"
        }
      },
      {
        "type": "Feature",
        "properties": {
          "title": "McConnell Engineering",
          "description": "6 Water Refill Stations - Faculty of Engineering and Computer Science"
        },
        "geometry": {
          "coordinates": [-73.57639981684945, 45.50612192409354],
          "type": "Point"
        }
      },
      {
        "type": "Feature",
        "properties": {
          "title": "MacDonald-Harrington Building",
          "description": "2 Water Refill Stations - School of Architecture and Urban Planning"
        },
        "geometry": {
          "coordinates": [-73.5764670790116, 45.506083802843015],
          "type": "Point"
        }
      },
      {
        "type": "Feature",
        "properties": {
          "title": "Lorne M Trottier Trottier Building",
          "description": "6 Water Refill Stations - SOCS and ESCE Building"
        },
        "geometry": {
          "coordinates": [-73.57879290335616, 45.507777233755405],
          "type": "Point"
        }
      },
      {
        "type": "Feature",
        "properties": {
          "title": "Frank Dawson Adams Building",
          "description": "7 Water Refill Stations - Physical Sciences Centre"
        },
        "geometry": {
          "coordinates": [-73.57559000520544, 45.50536182107991],
          "type": "Point"
        }
      },
      {
        "type": "Feature",
        "properties": {
          "title": "Sherbrooke 688",
          "description": "5 Water Refill Stations - University services, classrooms and study spaces"
        },
        "geometry": {
          "coordinates": [-73.5730781303426, 45.50486419229599],
          "type": "Point"
        }
      },
      {
        "type": "Feature",
        "properties": {
          "title": "Schulich School of Music",
          "description": "8 Water Refill Stations - Faculty of Music"
        },
        "geometry": {
          "coordinates": [-73.575656712296, 45.50339933950996],
          "type": "Point"
        }
      },
      {
        "type": "Feature",
        "properties": {
          "title": "Birks Reading Room",
          "description": "1 Water Fountain - Religious Studies Building"
        },
        "geometry": {
          "coordinates": [ -73.57738828687332, 45.50694768034888],
          "type": "Point"
        }
      },
      {
        "type": "Feature",
        "properties": {
          "title": "Otto Maass Chemistry Building",
          "description": "5 Water Refill Stations - Faculty of Science and School of Chemistry"
        },
        "geometry": {
          "coordinates": [-73.57365622956276, 45.50498264009149],
          "type": "Point"
        }
      },
      {
        "type": "Feature",
        "properties": {
          "title": "Desautels School of Management",
          "description": "25 Water Refill Stations - Faculty of Management, Desautels"
        },
        "geometry": {
          "coordinates": [-73.57666530500445, 45.50310677002699],
          "type": "Point"
        }
      },
      {
        "type": "Feature",
        "properties": {
          "title": "Rutherford Physics",
          "description": "4rut Water Refill Stations - Department of Physics"
        },
        "geometry": {
          "coordinates": [ -73.57857862908219, 45.50758678049989],
          "type": "Point"
        }
      },
      {
        "type": "Feature",
        "properties": {
          "title": "Strathcona Dentistry and Anatomy",
          "description": "1 Water Refill Stations - Sciences Building and School of Dentistry"
        },
        "geometry": {
          "coordinates": [-73.5799084943535, 45.5079072476866],
          "type": "Point"
        }
      }
    ],
    "type": "FeatureCollection"
  }
  